Nome,Latitude,Longitude,Altitude
Projeto Criosfera-C891,-84.0000,-79.4942,1.285 
Cruzeiro do Sul-A108,-7.610773,-72.681333,220 
Epitaciolândia-A140,-11.023752,-68.735180,225 
Feijó-A138,-8.142654,-70.343594,157 
Marechal Thaumaturgo-A137,-8.950008,-72.786778,221 
Parque Estadual Chandless-A102,-9.358353,-69.926257,185 
Porto Walter-A136,-8.267197,-72.747838,205 
Rio Branco-A104,-9.957844,-68.165169,224 
Arapiraca-A353,-9.804551,-36.619198,237 
Coruripe-A355,-10.128482,-36.286348,82 
Maceió-A303,-9.551168,-35.770195,84 
Palmeira dos Índios-A327,-9.420334,-36.620371,278 
Pão de Açucar-A323,-9.749220,-37.430765,21 
Piranhas-A371,-9.622261,-37.767113,187 
São Luis do Quitunde-A356,-9.287481,-35.565878,14 
Apui-A113,-7.205475,-59.888561,157 
Autazes-A120,-3.583333,-59.12944,20 
Barcelos-A128,-0.987292,-62.924251,30 
Boca do Acre-A110,-8.776804,-67.332557,112 
Coari-A117,-4.097483,-63.145322,34 
Eirunepé-A109,-6.650301,-69.868610,122 
Humaitá-A112,-7.552520,-63.071343,54 
Itacoatiara-A121,-3.133333,-58.48278,42 
Lábrea-A111,-7.260681,-64.788501,62 
Manacapuru-A119,-3.294638,-60.628402,37 
Manacapuru-A119,-3.294638,-60.628402,37 
Manacapuru-A119,-3.294638,-60.628402,37 
Manacapuru-A119,-3.294638,-60.628402,37 
Manacapuru-A119,-3.294638,-60.628402,37 
Manacapuru-A119,-3.294638,-60.628402,37 
Manacapuru-A119,-3.294638,-60.628402,37 
São Gabriel da Cachoeira-A134,-0.125207,-67.061246,80 
Urucará-A124,-2.534749,-57.758099,18 
Itaubal-A251,0.5678333,-50.8235278,21 
Macapá-A249,0.035020,-51.088763,17 
Oiapoque-A242,3.813583,-51.862500,15 
Tartarugalzinho-A243,1.496667,-50.9167,21 
Abrolhos-A422,-17.963016,-38.703288,21 
Amargosa-A434,-13.009468,-39.616881,398 
Barra-A429,-11.084858,-43.138998,408 
Barreiras-A402,-12.124715,-45.027049,474 
Belmonte-A447,-16.088049,-39.215389,90 
Bom Jesus da Lapa-A418,-13.251094,-43.405365,448 
Brumado-A433,-14.181886,-41.672281,473 
Buritirama-A432,-10.722925,-43.651203,506 
Caravelas-A405,-17.739413,-39.258617,6 
Conde-A431,-12.035833,-37.683889,32 
Correntina-A416,-13.332386,-44.617376,552 
Cruz das Almas-A406,-12.675422,-39.089580,220 
Curaçá-A448,-9.0013,-39.9124,370 
Delfino-A443,-10.454920,-41.206996,646 
Euclides da Cunha-A442,-10.537233,-38.996605,432 
Feira de Santana-A413,-12.196200,-38.967384,230 
Formosa do Rio Preto-A452,-11.0521639,-45.2007694,488 
Guanambi-A426,-14.2081235,-42.749647,552 
Ibotirama-A439,-12.193060,-43.213420,425 
Ilhéus-A410,-14.658803,-39.181438,80 
Ipiaú-A445,-14.171304,-39.692502,132 
Irecê-A424,-11.328998,-41.864504,768 
Itaberaba-A408,-12.524062,-40.299714,250 
Itamaraju-A455,-17.436667,-39.550861,110 
Itapetinga-A446,-15.24462,-40.22955,271 
Itiruçu-A407,-13.527828,-40.119752,757 
Jacobina-A440,-11.205136,-40.464979,441 
Jeremoabo-A450,-10.0807,-38.3459,261 
Lençóis-A425,-12.557854,-41.388808,438 
Luis Eduardo Magalhaes-A404,-12.152394,-45.829745,761 
Macajuba-A412,-12.131694,-40.354222,339 
Macaúbas-A454,-13.0389,-42.6172,574 
Maraú-A438,-13.90694,-38.97222,6 
Paulo Afonso-A411,-9.378106,-38.226771,255 
Piatã-A430,-13.155681,-41.774125,1.284 
Pilão Arcado-A449,-10.002261,-42.473641,400 
Porto Seguro-A427,-16.388977,-39.182389,86 
Queimadas-A436,-10.984645,-39.617009,310 
Remanso-A423,-9.625693,-42.077214,397 
Salvador-A401,-13.005515,-38.505760,48 
Santa Rita de Cássia-A415,-11.002768,-44.524965,450 
Senhor do Bonfim-A428,-10.443072,-40.148244,532 
Serrinha-A441,-11.664586,-39.022946,338 
Uauá-A435,-9.833617,-39.495631,451 
Una-A437,-15.280215,-39.091270,74 
Valença-A444,-13.34361,-39.12667,93 
Vitória da Conquista-A414,-14.886428,-40.801330,879 
Acaraú-A360,-3.121067,-40.087288,67 
Barbalha-A315,-7.300925,-39.271107,409 
Campos Sales-A347,-7.077730,-40.362678,578 
Crateús-A342,-5.186636,-40.672128,298 
Fortaleza-A305,-3.815701,-38.537792,30 
Guaramiranga-A314,-4.261351,-38.931068,866 
Iguatu-A319,-6.396375,-39.268954,222 
Itapipoca-A359,-3.484298,-39.588715,104 
Jaguaribe-A358,-5.905589,-38.627792,149 
Jaguaruana-A339,-4.853511,-37.777189,17 
Morada Nova-A332,-5.136689,-38.356590,45 
Quixeramobim-A325,-5.174568,-39.289393,221 
Sobral-A306,-3.748177,-40.345720,92 
Tauá-A324,-6.017474,-40.281321,411 
Águas Emendadas-A045,-15.596491,-47.625801,1.030 
Brasília-A001,-15.789343,-47.925756,1.161 
Brazlândia-A042,-15.652894,-48.201369,1.143 
Paranoá (COOPA)-A047,-16.012222,-47.557417,1.043 
Afonso Cláudio-A657,-20.104194,-41.106861,507 
Alegre-A617,-20.750412,-41.488852,129 
Alfredo Chaves-A615,-20.636526,-40.741818,14 
Ecoporanga-A631,-18.291519,-40.736412,224 
Linhares-A614,-19.356923,-40.068680,38 
Marilândia-A632,-19.407181,-40.539825,95 
Nova Venécia-A623,-18.695265,-40.390572,156 
Presidente Kennedy-A622,-21.100805,-41.039395,69 
Santa Teresa-A613,-19.988388,-40.579572,976 
São Mateus-A616,-18.676198,-39.864051,29 
Venda Nova do Imigrante-A633,-20.385423,-41.1899342,722 
Vila Velha-A634,-20.467069,-40.404051,25 
Vitória-A612,-20.271094,-40.306069,9 
Alto Paraíso de Goiás-A024,-14.133074,-47.523258,1.265 
Aragarças-A013,-15.902658,-52.245172,327 
Caiapônia-A023,-16.966841,-51.817567,740 
Catalão-A034,-18.154779,-47.927614,901 
Cristalina-A036,-16.784896,-47.612966,1.211 
Edéia-A029,-17.337001,-49.914778,610 
Gama (Ponte Alta)-A046,-15.935139,-48.137377,990 
Goianésia-A022,-15.220199,-48.990107,667 
Goiânia-A002,-16.642841,-49.220222,727 
Goiás-A014,-15.939729,-50.141433,513 
Iporá-A028,-16.423059,-51.148801,610 
Itapaci-A015,-14.979792,-49.539977,551 
Itumbiara-A035,-18.409761,-49.192061,491 
Jataí-A016,-17.923622,-51.717467,670 
Luziânia-A012,-16.260542,-47.966962,1.001 
Monte Alegre de Goiás-A032,-13.253521,-46.890326,551 
Morrinhos-A003,-17.745066,-49.101698,751 
Niquelândia-A004,-14.469358,-48.485756,664 
Paraúna-A027,-16.962536,-50.425450,679 
Pires do Rio-A033,-17.304153,-48.284131,757 
Posse-A017,-14.089210,-46.366497,830 
Rio Verde-A025,-17.785303,-50.964869,780 
São Miguel do Araguaia-A031,-12.820489,-50.335969,210 
São Simão-A011,-18.969142,-50.633449,492 
Silvânia-A037,-16.679786,-48.618171,952 
Alto Parnaíba-A223,-9.108199,-45.932016,284 
Bacabal-A220,-4.243056,-44.794993,22 
Balsas-A204,-7.455609,-46.027546,271 
Barra do Corda-A221,-5.506782,-45.237053,154 
Buriticupu-A238,-4.320597,-46.449503,175 
Carolina-A205,-7.337269,-47.459839,183 
Caxias-A237,-4.821352,-43.343659,85 
Chapadinha-A206,-3.742674,-43.352084,104 
Colinas-A222,-6.033167,-44.233402,175 
Estreito-A224,-6.653272,-47.418241,183 
Farol Preguiças-A218,-2.592341,-42.707553,5 
Farol Santana-A217,-2.270811,-43.624043,10 
Grajaú-A207,-5.816085,-46.162200,232 
Imperatriz-A225,-5.555723,-47.459794,118 
São Luís-A203,-2.526771,-44.213577,55 
Turiaçu-A219,-1.661224,-45.372571,36 
Águas Vermelhas-A549,-15.751536,-41.457787,754 
Aimorés-A534,-19.532768,-41.090801,288 
Almenara-A508,-16.166773,-40.687756,189 
Araçuaí-A566,-16.848806,-42.035361,308 
Araxá-A505,-19.605696,-46.949617,1.018 
Bambuí-A565,-20.031111,-46.008811,697 
Barbacena-A502,-21.228373,-43.767703,1.169 
Belo Horizonte - Cercadinho-F501,-19.980034,-43.958651,1.200 
Belo Horizonte - Pampulha-A521,-19.883945,-43.969397,854 
Buritis-A544,-15.524262,-46.435536,894 
Caldas-A530,-21.918066,-46.382996,1.077 
Campina Verde-A519,-19.539210,-49.518133,559 
Capelinha-A541,-17.705504,-42.389256,932 
Caratinga-A554,-19.735757,-42.137146,609 
Chapada Gaúcha-A548,-15.300159,-45.617431,873 
Conceição das Alagoas-A520,-19.985860,-48.151574,573 
Coronel Pacheco-A557,-21.546728,-43.261029,411 
Curvelo-A538,-18.747711,-44.453785,669 
Diamantina-A537,-18.231052,-43.648269,1.359 
Divinópolis-A564,-20.173278,-44.874944,796 
Dores do Indaiá-A536,-19.481935,-45.593932,721 
Espinosa-A543,-14.912284,-42.808473,565 
Florestal-A535,-19.885398,-44.416883,754 
Formiga-A524,-20.454930,-45.453825,878 
Governador Valadares-A532,-18.830354,-41.977007,198 
Guanhães-A533,-18.786842,-42.942921,853 
Guarda-Mor-A546,-17.561349,-47.199251,997 
Ibirité (Rola Moça)-A555,-20.031457,-44.011249,1.199 
Itaobim-A550,-16.575667,-41.485588,272 
Ituiutaba-A512,-18.952907,-49.525072,540 
Janaúba-A563,-15.802833,-43.297056,532 
Januária-A559,-15.44808917,-44.36631333,468 
João Pinheiro-A553,-17.784770,-46.119394,877 
Juiz de Fora-A518,-21.769965,-43.364329,937 
Machado-A567,-21.680722,-45.944389,969 
Manhuaçu-A556,-20.263378,-42.182817,819 
Mantena-A540,-18.780620,-40.986505,255 
Maria da Fé-A531,-22.314567,-45.373049,1.281 
Mocambinho-A539,-15.085958,-44.016036,454 
Montalvânia-A526,-14.408228,-44.404123,520 
Montes Claros-A506,-16.686316,-43.843763,646 
Monte Verde-A509,-22.861604,-46.043365,1.545 
Muriaé-A517,-21.104867,-42.375904,283 
Ouro Branco-A513,-20.556592,-43.756220,1.048 
Passa Quatro-A529,-22.395799,-44.961909,1.017 
Passos-A516,-20.745237,-46.633916,782 
Patos de Minas-A562,-18.520667,-46.440611,950 
Patrocíonio-A523,-18.996684,-46.985935,978 
Pirapora-A545,-17.258064,-44.835600,505 
Pompéu-A560,-19.239555,-45.008187,705 
Rio Pardo de Minas-A551,-15.723139,-42.43575,850 
Sacramento-A525,-19.875271,-47.434102,913 
Salinas-A552,-16.160327,-42.310266,487 
São João del Rei-A514,-21.106502,-44.250928,930 
São Romão-A547,-16.362747,-45.123801,490 
São Sebastião do Paraíso-A561,-20.909892,-47.114259,845 
Serra dos Aimorés-A522,-17.798799,-40.249933,212 
Sete Lagoas-A569,-19.455288,-44.173380,719 
Teófilo Otoni-A527,-17.892840,-41.515423,467 
Timóteo-A511,-19.573824,-42.622413,493 
Três Marias-A528,-18.200855,-45.459836,931 
UBERABA-A568,-19.710028,-47.961889,778 
Uberlândia-A507,-18.917072,-48.255657,875 
Unaí-A542,-16.554101,-46.881935,641 
Varginha-A515,-21.566513,-45.404300,950 
Viçosa-A510,-20.762607,-42.864013,698 
Água Clara-A756,-20.44444,-52.87583,324 
Amambaí-A750,-23.002530,-55.329357,434 
Aquidauana-A719,-20.475420,-55.784006,151 
Bataguassu-A759,-21.750123,-52.471294,392 
Bela Vista-A757,-22.101536,-56.540763,206 
Campo Grande-A702,-20.447195,-54.722615,528 
Cassilândia-A742,-19.122471,-51.720732,495 
Chapadão do Sul-A730,-18.802187,-52.602620,821 
Corumbá-A724,-18.99667,-57.6375,112 
Costa Rica-A760,-18.492665,-53.171261,727 
Coxim-A720,-18.512146,-54.736116,251 
Dourados-A721,-22.193920,-54.911355,463 
Itaquiraí-A752,-23.449501,-54.181858,338 
Ivinhema-A709,-22.300421,-53.822895,377 
Jardim-A758,-21.478529,-56.137717,252 
Juti-A749,-22.857210,-54.605634,375 
Maracaju-A731,-21.609036,-55.177531,389 
Miranda-A722,-20.395530,-56.431736,132 
Nhumirim-A717,-18.988681,-56.622868,102 
Paranaíba-A710,-19.695517,-51.181769,408 
Ponta Porã-A703,-22.552448,-55.716317,668 
Porto Murtinho-A723,-21.705850,-57.886546,79 
Rio Brilhante-A743,-21.774940,-54.528108,324 
São Gabriel do Oeste-A732,-19.420320,-54.553088,646 
Sete Quedas-A751,-23.966893,-55.024227,398 
Sidrolândia-A754,-20.981637,-54.971870,471 
Sonora-A761,-17.635277,-54.760470,495 
Três Lagoas-A704,-20.7900,-51.7122,329 
Água Boa-A908,-14.016496,-52.211690,440 
Alta Floresta-A924,-10.077262,-56.179221,292 
Alto Araguaia-A909,-17.339359,-53.224449,753 
Alto Taquari-A934,-17.841011,-53.289474,862 
Apiacás-A910,-9.563392,-57.393578,218 
Cáceres-A941,-16.074740,-57.693047,124 
Campo Novo dos Parecis-A905,-13.785907,-57.838485,525 
Campo Verde-A912,-15.531431,-55.135649,748 
Carlinda-A926,-9.970586,-55.827543,294 
Comodoro-A913,-13.708046,-59.762385,577 
Confresa-A918,-10.639518,-51.571456,233 
Cotriguaçu-A919,-9.906296,-58.572235,265 
Cuiabá-A901,-15.559295,-56.062951,242 
Gaucha do Norte-A930,-13.184857,-53.257366,376 
Guarantã do Norte-A906,-9.952594,-54.897834,284 
Guiratinga-A932,-16.341587,-53.766089,525 
Itiquira-A933,-17.175051,-54.501690,593 
Juara-A914,-11.280158,-57.526641,263 
Juína-A920,-11.375126,-58.774785,365 
Nova Maringá-A928,-13.038642,-57.092201,334 
Nova Ubiratã-A929,-13.411105,-54.752144,466 
Novo Mundo-A927,-12.521901,-58.231401,426 
Paranatinga-A915,-14.421492,-54.036055,477 
Pontes e Lacerda-A937,-15.234582,-59.346215,273 
Porto Estrela-A935,-15.324728,-57.225845,148 
Primavera do Leste-A923,-15.579944,-54,381001,680 
Querência-A916,-12.627315,-52.220891,361 
Rondonópolis-A907,-16.462419,-54.580151,290 
Salto do Céu-A936,-15.124811,-58.127092,301 
Santo Antônio do Leste-A931,-14.927883,-53.883643,664 
São Félix do Araguaia-A921,-11.619023,-50.727856,201 
São José do Rio Claro-A903,-13.453981,-56.677323,340 
Sapezal-A911,-13.304085,-58.763525,555 
Sinop-A917,-11.982245,-55.565993,367 
Sorriso-A904,-12.555107,-55.722863,379 
Tangará da Serra-A902,-14.650117,-57.431556,440 
Vila Bela da Santíssima Trindade-A922,-15.062696,-59.872921,213 
Belém-A201,-1.411228,-48.439512,21 
Bragança-A226,-1.047258,-46.785790,41 
Breves-A228,-1.680251,-50.478139,11 
Cametá-A236,-2.239653,-49.499827,10 
Capitão Poço-A248,-1.734766,-47.057500,79 
Castanhal-A202,-1.300875,-47.947967,47 
Conceição do Araguaia-A241,-8.30361,-49.28277,176 
Itaituba-A231,-4.276978,-55.993087,24 
Marabá-A240,-5.366447,-49.051166,117 
Medicilandia-A209,-3.510943,-52.963450,252 
Mina Palito-A246,-6.320067,-55.787783,260 
Monte Alegre-A239,-2.000054,-54.076479,101 
Novo Repartimento-A235,-4.243989,-49.939308,101 
Óbidos-A232,-1.880789,-55.519856,90 
Pacajá-A210,-3.843701,-50.638098,89 
Paragominas-A212,-2.990361,-47.407833,113 
Placas-A211,-3.864040,-54.216416,100 
Rondon do Pará-A214,-4.827501,-48.173556,203 
Salinópolis-A215,-0.618884,-47.356596,23 
Santana do Araguaia-A233,-9.338611,-50.35028,177 
Santarém-A250,-2.502572,-54.720279,137 
São Félix do Xingu-A216,-6.639622,-51.956966,211 
Serra dos Carajás-A230,-6.077427,-50.142265,707 
Soure-A227,-0.727827,-48.515795,13 
Tomé Açu-A213,-2.592606,-48.360585,43 
Tucumã-A234,-6.743208,-51.141899,321 
Tucuruí-A229,-3.822760,-49.674956,138 
Xinguara-A247,-7.110518,-49.926072,245 
Areia-A310,-6.975451,-35.718128,573 
Cabaceiras-A348,-7.483206,-36.286469,392 
Camaratuba-A352,-6.561813,-35.135316,136 
Campina Grande-A313,-7.225574,-35.904831,546 
Itaporanga-A373,-7.318459,-38.140843,292 
João Pessoa-A320,-7.165409,-34.815627,34 
Monteiro-A334,-7.894465,-37.124704,606 
Patos-A321,-7.079836,-37.272817,264 
São Gonçalo-A333,-6.835777,-38.311583,237 
Arco Verde-A309,-8.433544,-37.055477,684 
Cabrobó-A329,-8.504000,-39.315280,343 
Caruaru-A341,-8.236069,-35.985550,570 
Floresta-A351,-8.598785,-38.584062,327 
Garanhuns-A322,-8.910950,-36.493381,828 
Ibimirim-A349,-8.509552,-37.711591,434 
Ouricuri-A366,-7.885833,-40.102683,458 
Palmares-A357,-8.666667,-35.567921,164 
Petrolina-A307,-9.388323,-40.523262,373 
Recife-A301,-8.059280,-34.959239,11 
Salgueiro-A370,-8.0580556,-39.096111,447 
Serra Talhada-A350,-7.954277,-38.295082,499 
Surubim-A328,-7.839628,-35.801056,421 
Alvorada do Gurguéia-A336,-8.441598,-43.865443,261 
Bom Jesus do Piauí-A326,-9.083251,-44.326470,296 
Canto do Buriti-A365,-8.117939,-42.975721,312 
Caracol-A337,-9.285880,-43.324438,515 
Castelo do Piauí-A361,-5.349228,-41.512274,269 
Esperantina-A338,-3.899365,-42.259483,88 
Floriano-A311,-6.761438,-43.003396,126 
Gilbués-A364,-9.875196,-45.345805,425 
Oeiras-A354,-6.974135,-42.146831,154 
Parnaíba-A308,-3.086656,-41.783139,52 
Paulistana-A330,-8.132288,-41.142945,376 
Picos-A343,-7.071016,-41.404042,233 
Piripiri-A335,-4.276047,-41.794568,158 
São João do Piauí-A331,-8.364977,-42.250369,237 
São Pedro do Piaui-A362,-5.911033,-42.718729,296 
São Raimundo Nonato-A345,-9.033211,-42.701112,383 
Teresina-A312,-5.034769,-42.801341,75 
Uruçui-A346,-7.441420,-44.345055,399 
Valença do Piauí-A363,-6.399274,-41.739953,313 
Campina da Lagoa-B803,-24.570861,-52.800256,598 
Castro-A819,-24.786954,-49.999266,994 
Cidade Gaúcha-A869,-23.359156,-52.931912,366 
Clevelândia-A876,-26.417200,-52.348741,966 
Colombo-B806,-25.322464,-49.157733,950 
Curitiba-A807,-25.448688,-49.230602,923 
Diamante do Norte-A849,-22.639366,-52.890156,368 
Dois Vizinhos-A843,-25.699063,-53.095273,546 
Foz do Iguaçu-A846,-25.601834,-54.483065,235 
General Carneiro-A875,-26.398473,-51.353670,1.009 
Icaraíma-A824,-23.390380,-53.635933,381 
Ilha do Mel-A847,-25.494522,-48.326041,4 
Inácio Martins-A823,-25.567879,-51.077946,1.209 
Ivaí-A818,-25.010757,-50.853853,804 
Japira-A871,-23.773341,-50.180570,693 
Joaquim Távora-A821,-23.505266,-49.946387,513 
Laranjeiras do Sul-B804,-25.368944,-52.391944,835 
Marechal Cândido Rondon-A820,-24.533303,-54.019248,392 
Maringá-A835,-23.405357,-51.932828,549 
Morretes-A873,-25.508935,-48.808681,50 
Nova Fátima-A842,-23.415284,-50.577744,664 
Nova Tebas-A822,-24.437346,-51.963020,656 
Paranapoema-A850,-22.658273,-52.134526,309 
Planalto-A855,-25.721863,-53.747920,399 
São Mateus do Sul-A874,-25.835604,-50.368994,780 
Ventania-A872,-24.280394,-50.210150,1.093 
Angra dos Reis-A628,-22.975694,-44.303444,6 
Arraial do Cabo-A606,-22.975468,-42.021450,3 
Cambuci-A604,-21.587729,-41.958327,60 
Campos dos Goytacazes-A607,-21.714767,-41.344017,17 
Campos - São Tomé-A620,-22.041647,-41.051871,7 
Duque de Caxias - Xerém-A603,-22.589806,-43.282233,24 
Itatiaia - Parque Nacional-A635,-22.373944,-44.703111,2.450 
Macaé-A608,-22.376318,-41.812053,25 
Nova Friburgo-Salinas-A624,-22.334839,-42.676932,1.065 
Paraty-A619,-23.223540,-44.726863,3 
Petrópolis - Pico do Couto-A610,-22.464889,-43.291505,1.758 
Resende-A609,-22.450924,-44.444786,439 
Rio Claro (Passa Três)-A626,-22.653580,-44.040916,516 
Rio de Janeiro - Forte de Copacabana-A652,-22.988286,-43.190436,26 
Rio de Janeiro-Jacarepaguá-A636,-22.939883,-43.402897,20 
Rio de Janeiro - Marambaia-A602,-23.050334,-43.595685,9 
Rio de Janeiro - Vila Militar-A621,-22.861322,-43.411410,30 
Saquarema - Sampaio Correia-A667,-22.871321,-42.609219,26 
Seropédica - Ecologia Agrícola-A601,-22.757868,-43.684843,35 
Silva Jardim-A659,-22.645911,-42.415775,19 
Teresópolis - Parque Nacional-A618,-22.448922,-42.987146,991 
Três Rios-A625,-22.098391,-43.208574,305 
Valença-A611,-22.358094,-43.695656,367 
Apodi-A340,-5.626559,-37.814991,131 
Caicó-A316,-6.467474,-37.084931,171 
Calcanhar-A344,-5.159925,-35.487616,10 
Ipanguaçu-A372,-5.534867,-36.872314,19 
Macau-A317,-5.151035,-36.573142,17 
Mossoró-A318,-4.904087,-37.366943,29 
Natal-A304,-5.837187,-35.207921,47 
Santa Cruz-A367,-6.227922,-36.026587,227 
Ariquemes-A940,-9.949001,-62.961873,128 
Cacoal-A939,-11.445837,-61.434146,184 
Porto Velho-A925,-8.793662,-63.845931,87 
Vilhena-A938,-12.734862,-60.157784,583 
Boa Vista-A135,2.816897,-60.690821,82 
Alegrete-A826,-29.709083,-55.525486,121 
Bagé-A827,-31.347801,-54.013292,226 
Bento Gonçalves-A840,-29.164581,-51.534202,623 
Caçapava do Sul-A812,-30.545317,-53.467050,421 
Camaquã-A838,-30.807953,-51.834240,92 
Cambará do Sul-A897,-29.049125,-50.149636,1.017 
Campo Bom-A884,-29.674293,-51.064042,23 
Canela-A879,-29.368788,-50.827231,831 
Canguçu-A811,-31.403299,-52.700699,447 
Cruz Alta-A853,-28.603440,-53.673597,427 
Dom Pedrito-A881,-30.992475,-54.815270,157 
Erechim-A828,-27.657710,-52.305805,777 
Frederico Westphalen-A854,-27.395686,-53.429421,489 
Ibirubá-A883,-28.653458,-53.111881,455 
Jaguarão-A836,-32.534825,-53.375860,31 
Lagoa Vemelha-A844,-28.222381,-51.512845,834 
Mostardas-A878,-31.248279,-50.906279,4 
Palmeira das Missões-A856,-27.920379,-53.318049,614 
Passo Fundo-A839,-28.226805,-52.403582,681 
Porto Alegre-A801,-30.053536,-51.174766,41 
Quaraí-A831,-30.368578,-56.437115,113 
Rio Grande-A802,-32.078780,-52.167738,5 
Rio Pardo-A813,-29.872113,-52.381980,107 
Santa Maria-A803,-29.724960,-53.720469,103 
Santana do Livramento-A804,-30.842449,-55.613089,328 
Santa Rosa-A810,-27.890463,-54.480014,273 
Santa Vitória do Palmar (Barra do Chuí)-A899,-33.742297,-53.372218,7 
Santiago-A833,-29.191599,-54.885653,390 
Santo Augusto-A805,-27.854345,-53.791179,490 
São Borja-A830,-28.650092,-56.016291,81 
São Gabriel-A832,-30.341438,-54.310909,115 
São José dos Ausentes-A829,-28.748615,-50.057869,1.229 
São Luiz Gonzaga-A852,-28.417113,-54.962403,246 
São Vicente do Sul-A889,-29.702111,-54.694319,134 
Serafina Corrêa-A894,-28.704806,-51.870751,545 
Soledade-A837,-28.859211,-52.542387,660 
Teutônia-A882,-29.450334,-51.824283,80 
Torres-A808,-29.350359,-49.733263,8 
Tramandaí-A834,-30.010268,-50.135887,5 
Tupanciretã-A886,-29.0893814,-53.82665025,462 
Uruguaiana-A809,-29.839870,-57.081899,74 
Vacaria-A880,-28.513602,-50.882738,970 
Araranguá-A867,-28.931353,-49.497920,2 
Caçador-A859,-26.819156,-50.985520,944 
Curitibanos-A860,-27.288624,-50.604283,978 
Dionísio Cerqueira-A848,-26.286562,-53.633114,808 
Florianópolis-São José-A806,-27.602530,-48.620096,5 
Indaial-A817,-26.913704,-49.267978,72 
Itajaí-A868,-26.950924,-48.762031,10 
Itapoá-A851,-26.081303,-48.641774,6 
Ituporanga-A863,-27.418410,-49.646874,480 
Joaçaba-A841,-27.169268,-51.558963,768 
Lages-A865,-27.802228,-50.335457,953 
Laguna (Farol Santa Marta)-A866,-28.604414,-48.813313,34 
Major Vieira-A864,-26.393664,-50.363211,800 
Morro da Igreja (Bom Jardim da Serra)-A845,-28.126992,-49.479610,1.790 
Novo Horizonte-A816,-26.406499,-52.850366,944 
Rancho Queimado-A870,-27.678507,-49.042027,881 
Rio do Campo-A861,-26.937526,-50.145445,592 
Rio Negrinho-A862,-26.248411,-49.580624,857 
São Joaquim-A815,-28.275640,-49.934617,1.400 
São Miguel do Oeste-A857,-26.776699,-53.504541,655 
Urussanga-A814,-28.532557,-49.315205,41 
Xanxerê-A858,-26.938666,-52.398090,879 
Aracaju-A409,-10.952413,-37.054330,4 
Brejo Grande-A421,-10.473959,-36.482051,6 
Carira-A420,-10.399719,-37.747503,290 
ITABAIANA-A451,-10.671751,-37.471501,0 
Itabaianinha-A417,-11.2725,-37.795,205 
Nossa Senhora da Glória-A453,-10.207778,-37.431889,271 
Poço Verde-A419,-10.738020,-38.108389,367 
Ariranha-A736,-21.132937,-48.840426,525 
Avaré-A725,-23.101749,-48.940997,776 
Barra Bonita-A741,-22.471205,-48.557573,534 
Barra do Turvo-A746,-24.962819,-48.416379,660 
Barretos-A748,-20.559175,-48.544997,534 
Baruerí-A755,-23.52389,-46.86945,777 
Bauru-A705,-22.358052,-49.028877,636 
Bebedouro-A764,-20.949197,-48.489944,790 
Bertioga-A765,-23.844678,-46.143376,5 
Cachoeira Paulista-A769,-22.689001,-45.005444,586 
Campos do Jordão-A706,-22.750231,-45.603836,1.663 
Casa Branca-A738,-21.78056,-47.07528,734 
Dracena-A762,-21.457699,-51.552254,720 
Franca-A708,-20.584475,-47.382549,1.003 
Ibitinga-A737,-21.855567,-48.799717,497 
Iguape-A712,-24.671654,-47.545896,3 
Itapeva-A714,-23.981918,-48.885818,743 
Itapira-A739,-22.415062,-46.805292,635 
Ituverava-A753,-20.35976,-47.77522,611 
Jales-A733,-20.165025,-50.595134,460 
José Bonifácio-A735,-21.085675,-49.920388,408 
Lins-A727,-21.666045,-49.734854,461 
Marília-A763,-22.235222,-49.965111,660 
Ourinhos-A716,-22.949000,-49.894546,443 
Piracicaba-A726,-22.703132,-47.623317,566 
Pradópolis-A747,-21.338432,-48.114007,540 
Presidente Prudente-A707,-22.119867,-51.408637,432 
Rancharia-A718,-22.372832,-50.974710,399 
Registro-A766,-24.533139,-47.864139,35 
São Carlos-A711,-21.980353,-47.883927,859 
São Luis do Paraitinga-A740,-23.228362,-45.417055,862 
São Miguel Arcanjo-A715,-23.852022,-48.164817,676 
São Paulo (Mirante de Santana)-A701,-23.496294,-46.620088,786 
São Sebastião-A767,-23.810722,-45.402528,24 
Sorocaba-A713,-23.426035,-47.585552,609 
Taubaté-A728,-23.041668,-45.520841,582 
Tupã-A768,-21.927251,-50.490251,498 
Valparaiso-A734,-21.319138,-50.930158,382 
Votuporanga-A729,-20.403221,-49.966031,510 
Almas-A053,-11.284098,-47.212125,503 
Araguaçu-A054,-12.592213,-49.528738,231 
Araguaina-A021,-7.103954,-48.201231,231 
Araguatins-A044,-5.643725,-48.111839,131 
Campos Lindos-A043,-8.154665,-46.639323,427 
Colinas do Tocantins-A049,-8.092708,-48.478605,200 
Dianópolis-A038,-11.594448,-46.847209,728 
Formoso do Araguaia-A039,-11.887377,-49.608215,215 
Gurupi-A019,-11.745782,-49.049703,279 
Lagoa da Confusão-A055,-10.828286,-49.847882,178 
Marianópolis do Tocantins-A041,-9.576389,-49.72333,187 
Mateiros-A040,-10.434441,-45.921941,791 
Palmas-A009,-10.190744,-48.301811,292 
Paranã-A010,-12.614893,-47.871917,285 
Pedro Afonso-A020,-8.968677,-48.177259,190 
Peixe-A018,-12.015377,-48.544517,251 
Pium-A051,-10.476944,-49.629475,161 
Rio Sono-A050,-9.793363,-47.132732,291 
Santa Fé do Araguaia-A048,-7.124191,-48.781267,171 
Santa Rosa do Tocantins-A052,-11.429018,-48.184889,306 
Colonia-U560,-34.4510,-57.7675,22 
Paso de los Toros-U460,-32.7989694,-56.5290528,75 
Rocha-U565,-34.4936,-54.3124,18 
